{
  "type": "FeatureCollection",
  "features": [
    {
      "type": "Feature",
      "geometry": {
        "type": "Point",
        "coordinates": [
          -85.448475,
          35.924753
        ]
      },
      "properties": {
        "name": "Sparta Civic Center",
        "lattitude": "35.9247530000000",
        "longitude": "-85.4484750000000",
        "precint": "1-1",
        "address": "514 E Bockman Wy, Sparta, TN 38583",
        "_row_index": 0
      }
    },
    {
      "type": "Feature",
      "geometry": {
        "type": "Point",
        "coordinates": [
          -85.448475,
          35.924753
        ]
      },
      "properties": {
        "name": "Sparta Civic Center",
        "lattitude": "35.9247530000000",
        "longitude": "-85.4484750000000",
        "precint": "1-2",
        "address": "514 E Bockman Wy, Sparta, TN 38583",
        "_row_index": 1
      }
    },
    {
      "type": "Feature",
      "geometry": {
        "type": "Point",
        "coordinates": [
          -85.47763,
          35.95733
        ]
      },
      "properties": {
        "name": "Ag Fair Complex ",
        "lattitude": "35.9573300000000",
        "longitude": "-85.47763000000000",
        "precint": "2-1",
        "address": "565 Hale St, Sparta TN 38583",
        "_row_index": 2
      }
    },
    {
      "type": "Feature",
      "geometry": {
        "type": "Point",
        "coordinates": [
          -85.470409,
          35.907954
        ]
      },
      "properties": {
        "name": "Woodland Park School",
        "lattitude": "35.90795400000000",
        "longitude": "-85.47040900000000",
        "precint": "2-2",
        "address": "88 Panther Dr, Sparta, TN 38583",
        "_row_index": 3
      }
    },
    {
      "type": "Feature",
      "geometry": {
        "type": "Point",
        "coordinates": [
          -85.47763,
          35.95733
        ]
      },
      "properties": {
        "name": "Ag Fair Complex ",
        "lattitude": "35.9573300000000",
        "longitude": "-85.47763000000000",
        "precint": "3-1",
        "address": "565 Hale St, Sparta TN 38583",
        "_row_index": 4
      }
    },
    {
      "type": "Feature",
      "geometry": {
        "type": "Point",
        "coordinates": [
          -85.470409,
          35.907954
        ]
      },
      "properties": {
        "name": "Woodland Park School",
        "lattitude": "35.90795400000000",
        "longitude": "-85.47040900000000",
        "precint": "4-1",
        "address": "88 Panther Dr, Sparta, TN 38583",
        "_row_index": 5
      }
    },
    {
      "type": "Feature",
      "geometry": {
        "type": "Point",
        "coordinates": [
          -85.331459,
          35.943119
        ]
      },
      "properties": {
        "name": "BonDeCroft School",
        "lattitude": "35.943119000000003",
        "longitude": "-85.3314590000000",
        "precint": "4-2",
        "address": "8095 Crossville Hwy, Sparta, TN 38583 ",
        "_row_index": 6
      }
    },
    {
      "type": "Feature",
      "geometry": {
        "type": "Point",
        "coordinates": [
          -85.517796,
          35.854027
        ]
      },
      "properties": {
        "name": "Doyle Civic Center",
        "lattitude": "35.854027000000002",
        "longitude": "-85.51779600000000",
        "precint": "5-1",
        "address": "396 Mountain St, Doyle, TN 38559",
        "_row_index": 7
      }
    },
    {
      "type": "Feature",
      "geometry": {
        "type": "Point",
        "coordinates": [
          -85.586954,
          35.866191
        ]
      },
      "properties": {
        "name": "Gum Springs Church",
        "lattitude": "35.86619100000000",
        "longitude": "-85.58695400000001",
        "precint": "6-1",
        "address": "5454 Franks Ferry Rd, Walling, TN 38587",
        "_row_index": 8
      }
    },
    {
      "type": "Feature",
      "geometry": {
        "type": "Point",
        "coordinates": [
          -85.59993,
          35.956467
        ]
      },
      "properties": {
        "name": "Cassville School",
        "lattitude": "35.956467000000004",
        "longitude": "-85.59993000000000",
        "precint": "6-2",
        "address": "261 Will Thompson Rd, Sparta, TN 38583",
        "_row_index": 9
      }
    },
    {
      "type": "Feature",
      "geometry": {
        "type": "Point",
        "coordinates": [
          -85.525747,
          36.031008
        ]
      },
      "properties": {
        "name": "Northfield School",
        "lattitude": "36.031008000000000",
        "longitude": "-85.52574700000000",
        "precint": "7-1",
        "address": "570 S Bunker Hill Rd, Sparta, TN 38583",
        "_row_index": 10
      }
    },
    {
      "type": "Feature",
      "geometry": {
        "type": "Point",
        "coordinates": [
          -85.464324,
          35.925489
        ]
      },
      "properties": {
        "name": "White Co. Courthouse",
        "lattitude": "35.92548900000000",
        "longitude": "-85.46432400000000",
        "precint": "EV",
        "address": "1 E Bockman Wy, Sparta, TN 38583",
        "_row_index": 11
      }
    }
  ]
}